City_ID,City,Lat,Lng,Max Temp,Humidity,Cloudiness,Wind Speed,Country,Date
0,Bilibino,68.0546,166.4372,-11.29,86,11,4.97,RU,Mon Oct 30 02:59:16 2023
1,Albany,42.6001,-73.9662,45.64,93,100,1.99,US,Mon Oct 30 02:57:50 2023
2,Hotan,37.0997,79.9269,73.24,11,0,4.54,CN,Mon Oct 30 02:59:16 2023
3,Lata,40.1629,-8.3327,52.07,87,72,3.69,PT,Mon Oct 30 02:59:16 2023
4,Lebu,-37.6167,-73.65,45.79,62,95,4.85,CL,Mon Oct 30 02:59:16 2023
5,Ta`U,-14.2336,-169.5144,80.78,80,21,20.92,AS,Mon Oct 30 02:59:16 2023
6,Kurmuk,10.55,34.2833,74.32,79,100,4.41,SD,Mon Oct 30 02:59:16 2023
7,Kodiak,57.79,-152.4072,45.91,100,100,12.66,US,Mon Oct 30 02:59:17 2023
8,Hasaki,35.7333,140.8333,66.6,55,0,14.97,JP,Mon Oct 30 02:59:17 2023
9,Port Lincoln,-34.7333,135.8667,59.94,56,5,20.76,AU,Mon Oct 30 02:59:17 2023
10,Waitangi,-43.9535,-176.5597,50.83,83,95,1.01,NZ,Mon Oct 30 02:59:17 2023
11,Nishinoomote,30.7333,131.0,72.16,56,40,6.91,JP,Mon Oct 30 02:59:17 2023
12,Adamstown,-25.066,-130.1015,72.84,83,100,9.46,PN,Mon Oct 30 02:59:17 2023
13,Iqaluit,63.7506,-68.5145,15.53,73,75,13.8,CA,Mon Oct 30 02:59:17 2023
14,Mangai,-4.05,19.5333,82.47,67,52,1.52,CD,Mon Oct 30 02:59:17 2023
15,Labasa,-16.4167,179.3833,77.85,89,16,7.18,FJ,Mon Oct 30 02:59:18 2023
16,Margaret River,-33.95,115.0667,63.12,50,3,14.99,AU,Mon Oct 30 02:59:18 2023
17,Grytviken,-54.2811,-36.5092,38.62,96,100,7.45,GS,Mon Oct 30 02:59:18 2023
18,Dul'Durga,50.6761,113.5931,29.12,26,100,9.95,RU,Mon Oct 30 02:59:18 2023
19,Yellowknife,62.456,-114.3525,11.41,97,0,3.44,CA,Mon Oct 30 02:59:18 2023
20,Saint-Jean-De-Monts,46.7833,-2.0667,54.64,89,100,8.93,FR,Mon Oct 30 02:59:18 2023
21,Dunkwa,5.9656,-1.78,75.27,97,37,1.63,GH,Mon Oct 30 02:59:18 2023
22,Saint-Pierre,-21.3393,55.4781,85.68,62,0,17.27,RE,Mon Oct 30 02:59:19 2023
23,Venta De Banos,41.9371,-4.4645,49.73,86,100,4.0,ES,Mon Oct 30 02:59:19 2023
24,Edinburgh Of The Seven Seas,-37.0676,-12.3116,52.14,66,100,29.68,SH,Mon Oct 30 02:59:19 2023
25,Prado,-17.3411,-39.2208,72.21,84,100,8.39,BR,Mon Oct 30 02:59:19 2023
26,Lerwick,60.1545,-1.1494,44.6,61,21,27.04,GB,Mon Oct 30 02:59:19 2023
27,Richards Bay,-28.783,32.0377,63.61,56,96,16.13,ZA,Mon Oct 30 02:59:19 2023
28,Ribeira Grande,38.5167,-28.7,63.41,64,100,0.63,PT,Mon Oct 30 02:59:19 2023
29,Lagoa,39.05,-27.9833,62.51,65,100,5.3,PT,Mon Oct 30 02:59:20 2023
30,Remire-Montjoly,4.9167,-52.2667,75.24,100,0,0.0,GF,Mon Oct 30 02:59:20 2023
31,Mount Gambier,-37.8333,140.7667,55.36,64,81,16.46,AU,Mon Oct 30 02:59:20 2023
32,Zanesville,39.9404,-82.0132,56.21,99,100,5.35,US,Mon Oct 30 02:59:02 2023
33,Constantia,44.1833,28.65,65.08,61,0,7.45,RO,Mon Oct 30 02:57:23 2023
34,Enewetak,11.3474,162.3373,84.29,73,74,19.77,MH,Mon Oct 30 02:59:20 2023
35,Bishkek,42.87,74.59,71.8,28,100,6.2,KG,Mon Oct 30 02:54:59 2023
36,Hermanus,-34.4187,19.2345,60.17,52,0,20.78,ZA,Mon Oct 30 02:54:21 2023
37,Barth,54.3635,12.7249,51.06,86,100,19.91,DE,Mon Oct 30 02:59:20 2023
38,Port-Aux-Francais,-49.35,70.2167,35.62,62,86,32.46,TF,Mon Oct 30 02:59:21 2023
39,Al Qutayfah,33.7385,36.6007,66.02,50,100,9.51,SY,Mon Oct 30 02:59:21 2023
40,Invercargill,-46.4,168.35,52.59,77,6,5.99,NZ,Mon Oct 30 02:59:21 2023
41,Talnakh,69.4865,88.3972,1.2,93,94,4.99,RU,Mon Oct 30 02:59:21 2023
42,Magadan,59.5667,150.8,25.54,75,9,2.13,RU,Mon Oct 30 02:59:21 2023
43,Nea Alikarnassos,35.3333,25.1667,73.47,85,40,4.61,GR,Mon Oct 30 02:59:21 2023
44,Lihue,21.9789,-159.3672,76.59,81,100,9.22,US,Mon Oct 30 02:59:21 2023
45,Tsiombe,-25.3,45.4833,87.84,34,1,6.11,MG,Mon Oct 30 02:59:22 2023
46,Isafjordur,66.0755,-23.124,34.09,81,43,4.72,IS,Mon Oct 30 02:59:22 2023
47,Pisco,-13.7,-76.2167,66.25,82,100,5.75,PE,Mon Oct 30 02:59:22 2023
48,Eastham,41.8301,-69.9739,51.94,85,100,11.5,US,Mon Oct 30 02:59:22 2023
49,Stanley,54.868,-1.6985,44.28,91,40,2.3,GB,Mon Oct 30 02:59:22 2023
50,Puerto Natales,-51.7236,-72.4875,34.02,96,100,2.51,CL,Mon Oct 30 02:59:22 2023
51,Yuzhno-Kurilsk,44.0306,145.8556,46.38,76,0,3.02,RU,Mon Oct 30 02:59:22 2023
52,Ixtapa,20.7,-105.2,76.62,97,100,0.45,MX,Mon Oct 30 02:59:22 2023
53,La Ronge,55.1001,-105.2842,23.25,93,100,11.5,CA,Mon Oct 30 02:59:23 2023
54,Daoukro,7.0591,-3.9631,73.76,94,5,0.96,CI,Mon Oct 30 02:59:23 2023
55,Aasiaat,68.7098,-52.8699,22.89,89,100,10.11,GL,Mon Oct 30 02:59:23 2023
56,Xilin Hot,43.9667,116.0333,57.54,27,100,15.3,CN,Mon Oct 30 02:59:23 2023
57,Tamiahua,21.2667,-97.45,74.07,85,0,1.54,MX,Mon Oct 30 02:59:23 2023
58,Carutapera,-1.195,-46.02,78.06,81,98,6.93,BR,Mon Oct 30 02:59:23 2023
59,Lospalos,-8.5186,127.0025,83.5,55,100,9.8,TL,Mon Oct 30 02:59:24 2023
60,Saldanha,-33.0117,17.9442,66.25,36,0,18.61,ZA,Mon Oct 30 02:59:24 2023
61,Thompson,55.7435,-97.8558,21.36,79,75,9.22,CA,Mon Oct 30 02:59:24 2023
62,Kalmunai,7.4167,81.8167,84.38,69,94,6.31,LK,Mon Oct 30 02:59:24 2023
63,Qaqortoq,60.7167,-46.0333,39.96,73,100,17.29,GL,Mon Oct 30 02:59:24 2023
64,Ushuaia,-54.8,-68.3,31.66,74,75,12.66,AR,Mon Oct 30 02:59:24 2023
65,Kapa'A,22.0752,-159.319,77.32,86,100,9.22,US,Mon Oct 30 02:59:24 2023
66,Daru,-9.0763,143.2092,78.21,83,100,15.88,PG,Mon Oct 30 02:59:25 2023
67,Petropavlovsk-Kamchatsky,53.0452,158.6483,37.45,59,40,4.47,RU,Mon Oct 30 02:59:25 2023
68,'Alaqahdari Dishu,30.4374,63.313,86.38,20,0,2.77,AF,Mon Oct 30 02:59:25 2023
69,Papatowai,-46.5619,169.4708,52.3,83,6,9.6,NZ,Mon Oct 30 02:59:25 2023
70,Alpine,32.835,-116.7664,59.5,19,0,1.01,US,Mon Oct 30 02:59:25 2023
71,Longyearbyen,78.2186,15.6401,22.84,80,75,16.11,SJ,Mon Oct 30 02:59:25 2023
72,Atafu Village,-8.5421,-172.5159,84.52,69,14,14.99,TK,Mon Oct 30 02:59:25 2023
73,Turan,16.0678,108.2208,76.98,94,75,4.61,VN,Mon Oct 30 02:54:33 2023
74,Bredasdorp,-34.5322,20.0403,61.21,46,0,21.3,ZA,Mon Oct 30 02:59:26 2023
75,Blackmans Bay,-43.0167,147.3167,60.93,46,100,10.58,AU,Mon Oct 30 02:59:26 2023
76,Caleta De Carquin,-11.0925,-77.6267,66.24,90,73,9.51,PE,Mon Oct 30 02:59:26 2023
77,Inarajan Village,13.2736,144.7484,88.77,86,16,11.43,GU,Mon Oct 30 02:59:27 2023
78,Punta Arenas,-53.15,-70.9167,35.71,51,0,18.41,CL,Mon Oct 30 02:59:27 2023
79,Nemuro,43.3236,145.575,49.46,64,0,4.09,JP,Mon Oct 30 02:59:27 2023
80,Parvatsar,26.8833,74.7667,90.07,20,0,2.73,IN,Mon Oct 30 02:59:27 2023
81,Lazaro Cardenas,17.9583,-102.2,77.88,90,95,4.34,MX,Mon Oct 30 02:57:33 2023
82,Long Beach,33.767,-118.1892,71.69,15,0,14.97,US,Mon Oct 30 02:59:28 2023
83,Hawaiian Paradise Park,19.5933,-154.9731,74.89,94,75,4.61,US,Mon Oct 30 02:59:28 2023
84,Bich'Vinta,43.1592,40.3378,64.58,71,4,7.23,GE,Mon Oct 30 02:59:28 2023
85,Klyuchi,52.2667,79.1667,36.88,98,100,8.5,RU,Mon Oct 30 02:59:28 2023
86,Gizo,-8.103,156.8419,81.82,82,99,9.95,SB,Mon Oct 30 02:59:28 2023
87,Bethel,41.3712,-73.414,50.02,89,100,3.44,US,Mon Oct 30 02:59:28 2023
88,Kill Devil Hills,36.0307,-75.676,67.98,91,0,10.36,US,Mon Oct 30 02:59:28 2023
89,Coracora,-15.0333,-73.7833,47.71,68,4,1.34,PE,Mon Oct 30 02:59:29 2023
90,Nizhniy Kuranakh,58.8353,125.4869,17.33,90,100,2.95,RU,Mon Oct 30 02:59:29 2023
91,Feres,40.8956,26.17,63.84,82,20,6.91,GR,Mon Oct 30 02:59:29 2023
92,Frostburg,39.6581,-78.9284,62.24,99,100,3.44,US,Mon Oct 30 02:59:29 2023
93,Avarua,-21.2078,-159.775,71.65,73,40,6.91,CK,Mon Oct 30 02:59:29 2023
94,Callao,-12.0667,-77.15,68.72,82,75,12.66,PE,Mon Oct 30 02:59:29 2023
95,Viedma,-40.8135,-62.9967,48.16,36,0,15.64,AR,Mon Oct 30 02:56:39 2023
96,Olonkinbyen,70.9221,-8.7187,32.56,74,100,8.63,SJ,Mon Oct 30 02:59:30 2023
97,Puerto Ayora,-0.7393,-90.3518,74.55,92,89,4.0,EC,Mon Oct 30 02:59:30 2023
98,Ilulissat,69.2167,-51.1,25.43,75,100,8.19,GL,Mon Oct 30 02:59:30 2023
99,Labytnangi,66.6572,66.4183,9.41,95,95,1.52,RU,Mon Oct 30 02:59:30 2023
100,West Island,-12.1568,96.8225,82.38,74,100,19.57,CC,Mon Oct 30 02:59:30 2023
101,Aleg,17.0481,-13.9209,81.45,47,25,8.01,MR,Mon Oct 30 02:59:30 2023
102,Conde,-7.2597,-34.9075,71.06,94,0,5.75,BR,Mon Oct 30 02:59:30 2023
103,Georgetown,5.4112,100.3354,89.55,83,20,8.05,MY,Mon Oct 30 02:55:39 2023
104,High River,50.5834,-113.8687,21.09,79,42,7.43,CA,Mon Oct 30 02:59:31 2023
105,Dudinka,69.4058,86.1778,1.67,97,86,1.99,RU,Mon Oct 30 02:59:31 2023
106,Tralee,52.2704,-9.7026,48.4,93,97,4.34,IE,Mon Oct 30 02:59:31 2023
107,Iskateley,67.6803,53.1512,19.02,93,100,14.0,RU,Mon Oct 30 02:59:31 2023
108,Yerofey Pavlovich,53.9667,121.9667,24.85,37,100,7.67,RU,Mon Oct 30 02:59:31 2023
109,Loikaw,19.6742,97.2094,80.15,66,99,2.64,MM,Mon Oct 30 02:59:31 2023
110,Port Elizabeth,-33.918,25.5701,61.32,63,75,11.5,ZA,Mon Oct 30 02:59:31 2023
111,Cuatro Cienegas De Carranza,26.9833,-102.0833,50.52,90,100,13.02,MX,Mon Oct 30 02:59:31 2023
112,Ilebo,-4.3167,20.5833,82.98,72,51,2.04,CD,Mon Oct 30 02:59:32 2023
113,Kilju,40.9642,129.3278,61.3,55,69,4.05,KP,Mon Oct 30 02:59:32 2023
114,Hammerfest,70.6634,23.6821,27.05,86,40,2.3,NO,Mon Oct 30 02:59:32 2023
115,Nogliki,51.8333,143.1667,37.29,67,21,3.04,RU,Mon Oct 30 02:59:32 2023
116,Plettenberg Bay,-34.0527,23.3716,61.43,49,1,14.38,ZA,Mon Oct 30 02:59:32 2023
117,Tazacorte,28.629,-17.9293,71.15,76,0,5.99,ES,Mon Oct 30 02:59:32 2023
118,Ust-Nera,64.5667,143.2,4.91,97,100,1.14,RU,Mon Oct 30 02:59:32 2023
119,Argo,37.6333,22.7333,72.79,58,0,3.56,GR,Mon Oct 30 02:59:32 2023
120,Puerto Madryn,-42.7692,-65.0385,46.6,35,1,21.43,AR,Mon Oct 30 02:59:33 2023
121,Pariaman,-0.619,100.12,80.65,78,62,6.58,ID,Mon Oct 30 02:59:33 2023
122,Mordovo,52.0834,40.77,39.42,69,35,8.57,RU,Mon Oct 30 02:59:33 2023
123,Ciudad Lazaro Cardenas,17.9583,-102.2,77.88,90,95,4.34,MX,Mon Oct 30 02:59:33 2023
124,Vorgashor,67.5833,63.95,2.05,95,43,4.76,RU,Mon Oct 30 02:59:33 2023
125,Papar,5.7333,115.9333,91.4,79,94,2.68,MY,Mon Oct 30 02:59:34 2023
126,Saint-Philippe,-21.3585,55.7679,85.59,80,42,13.62,RE,Mon Oct 30 02:59:34 2023
127,Port Alfred,-33.5906,26.891,60.19,68,100,4.0,ZA,Mon Oct 30 02:59:34 2023
128,Monrovia,6.3005,-10.7969,74.97,86,18,1.61,LR,Mon Oct 30 02:59:34 2023
129,Williamsport,41.2412,-77.0011,52.18,95,100,9.22,US,Mon Oct 30 02:56:31 2023
130,Skovorodino,53.9833,123.9167,25.86,41,10,11.61,RU,Mon Oct 30 02:59:34 2023
131,Maisi,43.0395,41.2621,65.03,55,9,3.13,GE,Mon Oct 30 02:59:34 2023
132,Tarfaya,27.9358,-12.9218,68.67,78,100,7.07,MA,Mon Oct 30 02:59:35 2023
133,Gadzhiyevo,69.2551,33.3362,20.77,90,100,10.76,RU,Mon Oct 30 02:59:35 2023
134,Salanso,12.1833,-4.0833,80.13,41,11,1.45,BF,Mon Oct 30 02:59:35 2023
135,Philadelphia,39.9523,-75.1638,57.78,94,100,9.22,US,Mon Oct 30 02:55:30 2023
136,Howell,42.6073,-83.9294,40.66,95,100,1.99,US,Mon Oct 30 02:59:07 2023
137,Saipan,15.1355,145.701,88.5,74,40,12.66,MP,Mon Oct 30 02:59:35 2023
138,Greymouth,-42.4667,171.2,51.64,74,100,4.9,NZ,Mon Oct 30 02:59:36 2023
139,Holualoa,19.6228,-155.9522,76.84,72,0,9.22,US,Mon Oct 30 02:59:36 2023
140,Rondonopolis,-16.4708,-54.6356,77.07,78,8,2.93,BR,Mon Oct 30 02:59:36 2023
141,Port Douglas,-16.4833,145.4667,76.05,67,12,13.76,AU,Mon Oct 30 02:59:36 2023
142,Wailua Homesteads,22.0669,-159.378,75.99,89,100,9.22,US,Mon Oct 30 02:59:36 2023
143,Moral De Calatrava,38.7919,-3.5786,54.88,84,100,13.49,ES,Mon Oct 30 02:59:36 2023
144,Khanty-Mansiysk,61.0042,69.0019,17.71,62,40,11.18,RU,Mon Oct 30 02:59:37 2023
145,Port Mathurin,-19.6833,63.4167,77.14,77,3,14.45,MU,Mon Oct 30 02:59:37 2023
146,Ketchikan,55.3422,-131.6461,40.98,87,40,4.61,US,Mon Oct 30 02:59:37 2023
147,Hai Duong,20.9333,106.3167,86.0,56,79,4.0,VN,Mon Oct 30 02:59:37 2023
148,Keelung,25.1283,121.7419,82.29,79,46,9.44,TW,Mon Oct 30 02:59:37 2023
149,Barra Do Garcas,-15.89,-52.2567,78.67,65,100,3.98,BR,Mon Oct 30 02:59:37 2023
150,Dunedin,-45.8742,170.5036,54.81,78,7,3.0,NZ,Mon Oct 30 02:59:36 2023
151,Laojunmiao,39.8333,97.7333,61.93,13,2,14.9,CN,Mon Oct 30 02:59:37 2023
152,Sitka,57.0531,-135.33,42.69,75,0,4.61,US,Mon Oct 30 02:59:38 2023
153,Williamson,30.6502,-97.6003,42.76,91,100,11.5,US,Mon Oct 30 02:59:38 2023
154,Iquique,-20.2208,-70.1431,60.84,82,20,8.61,CL,Mon Oct 30 02:59:39 2023
155,Jayapura,-2.5333,140.7,87.19,82,100,8.72,ID,Mon Oct 30 02:59:39 2023
156,Genlis,47.242,5.2242,53.82,100,100,5.75,FR,Mon Oct 30 02:59:39 2023
157,Jamestown,42.097,-79.2353,47.01,100,100,3.44,US,Mon Oct 30 02:58:11 2023
158,Vila Franca Do Campo,37.7167,-25.4333,57.61,99,100,1.99,PT,Mon Oct 30 02:59:39 2023
159,Illizi,26.4833,8.4667,69.6,19,2,3.02,DZ,Mon Oct 30 02:59:39 2023
160,Barvinkove,48.9097,37.0205,53.47,71,100,10.6,UA,Mon Oct 30 02:59:40 2023
161,Tazovsky,67.4667,78.7,6.42,88,13,1.5,RU,Mon Oct 30 02:59:40 2023
162,Saint-Francois,46.4154,3.9054,53.65,94,0,2.3,FR,Mon Oct 30 02:59:40 2023
163,Audun-Le-Tiche,49.4723,5.9569,51.28,95,100,8.01,FR,Mon Oct 30 02:59:40 2023
164,Tolanaro,-25.0319,46.9987,82.47,74,40,4.61,MG,Mon Oct 30 02:59:40 2023
165,Arraial Do Cabo,-22.9661,-42.0278,73.92,95,100,9.8,BR,Mon Oct 30 02:59:40 2023
166,Vrnjacka Banja,43.6167,20.9,38.43,62,0,4.03,RS,Mon Oct 30 02:59:40 2023
167,Acajutla,13.5928,-89.8275,77.41,86,100,8.25,SV,Mon Oct 30 02:57:27 2023
168,Ancud,-41.8697,-73.8203,43.84,80,96,14.43,CL,Mon Oct 30 02:59:41 2023
169,Hami,42.8,93.45,63.41,25,99,5.21,CN,Mon Oct 30 02:59:41 2023
170,Kununurra,-15.7667,128.7333,98.58,34,96,12.66,AU,Mon Oct 30 02:59:41 2023
171,Sinop,41.7711,34.8709,64.96,67,98,5.32,TR,Mon Oct 30 02:59:41 2023
172,Kayyerkan,69.3786,87.7439,1.29,84,92,4.25,RU,Mon Oct 30 02:59:41 2023
173,Saudarkrokur,65.7461,-19.6394,30.52,81,80,8.19,IS,Mon Oct 30 02:59:41 2023
174,Kerikeri,-35.2268,173.9474,62.91,95,100,1.99,NZ,Mon Oct 30 02:59:41 2023
175,Nar'Yan-Mar,67.6713,53.087,19.11,93,100,14.0,RU,Mon Oct 30 02:59:41 2023
176,Fort Bragg,35.139,-79.006,64.24,91,0,5.75,US,Mon Oct 30 02:59:42 2023
177,Hafar Al-Batin,28.4328,45.9708,79.38,24,40,4.61,SA,Mon Oct 30 02:59:42 2023
178,Levuka,50.1834,-105.4011,24.62,93,16,10.4,CA,Mon Oct 30 02:59:42 2023
179,Carnarvon,-24.8667,113.6333,75.0,59,0,23.09,AU,Mon Oct 30 02:59:42 2023
180,Beroroha,-21.6667,45.1667,96.67,23,0,2.42,MG,Mon Oct 30 02:59:42 2023
181,Mersing,2.4312,103.8405,89.51,74,40,8.05,MY,Mon Oct 30 02:59:42 2023
182,Colonia,50.9333,6.95,55.58,84,20,9.22,DE,Mon Oct 30 02:59:42 2023
183,Bam,29.106,58.357,81.73,21,0,4.14,IR,Mon Oct 30 02:59:43 2023
184,Kourou,5.1552,-52.6478,75.25,91,90,5.73,GF,Mon Oct 30 02:59:43 2023
185,San Juan De Miraflores,-12.1629,-76.9635,67.17,83,99,7.18,PE,Mon Oct 30 02:59:43 2023
186,Kolyvan',55.3053,82.7391,26.22,64,99,12.03,RU,Mon Oct 30 02:59:43 2023
187,Weno,7.4515,151.8468,83.86,77,53,11.79,FM,Mon Oct 30 02:59:43 2023
188,Hadibu,12.65,54.0333,82.35,67,100,10.67,YE,Mon Oct 30 02:59:43 2023
189,Renqiu,38.6989,116.0936,76.87,32,3,4.0,CN,Mon Oct 30 02:59:43 2023
190,Fuling,29.7022,107.3919,74.68,58,12,3.44,CN,Mon Oct 30 02:59:43 2023
191,Mount Isa,-20.7333,139.5,94.77,28,40,10.36,AU,Mon Oct 30 02:59:44 2023
192,Lensk,60.7253,114.9278,22.48,58,100,7.94,RU,Mon Oct 30 02:59:44 2023
193,Minas De Marcona,-15.2119,-75.1103,57.6,89,31,10.56,PE,Mon Oct 30 02:59:44 2023
194,Nago,26.5881,127.9761,81.45,55,11,10.16,JP,Mon Oct 30 02:59:44 2023
195,I-N-Salah,27.1935,2.4607,81.16,18,1,6.13,DZ,Mon Oct 30 02:59:44 2023
196,Rio Grande,-32.035,-52.0986,67.95,93,97,6.04,BR,Mon Oct 30 02:59:44 2023
197,Luanco,43.6152,-5.7934,54.88,77,0,13.06,ES,Mon Oct 30 02:59:45 2023
198,Mankapur,27.0333,82.2333,85.26,35,26,5.3,IN,Mon Oct 30 02:59:45 2023
199,Starobin,52.7267,27.4606,51.01,83,97,13.71,BY,Mon Oct 30 02:59:45 2023
200,Utrik,11.2278,169.8474,82.62,83,100,21.27,MH,Mon Oct 30 02:59:45 2023
201,Lompoc,34.6391,-120.4579,50.58,67,0,8.05,US,Mon Oct 30 02:59:45 2023
202,Susuman,62.7833,148.1667,7.99,92,61,1.99,RU,Mon Oct 30 02:59:45 2023
203,San Patricio,28.017,-97.5169,57.83,66,77,20.8,US,Mon Oct 30 02:59:45 2023
204,Severo-Yeniseyskiy,60.3725,93.0408,9.57,85,100,1.99,RU,Mon Oct 30 02:59:45 2023
205,Murzuq,25.9155,13.9184,72.27,25,0,8.3,LY,Mon Oct 30 02:59:46 2023
206,Charters Towers,-20.1,146.2667,87.48,25,100,16.04,AU,Mon Oct 30 02:59:46 2023
207,La Passe,45.5549,-0.8967,55.63,90,100,10.2,FR,Mon Oct 30 02:59:46 2023
208,St. John'S,47.5649,-52.7093,39.97,62,3,15.01,CA,Mon Oct 30 02:59:46 2023
209,Chittarkonda,18.1167,82.0833,84.02,44,67,4.21,IN,Mon Oct 30 02:59:46 2023
210,Nuuk,64.1835,-51.7216,39.42,64,100,14.58,GL,Mon Oct 30 02:59:46 2023
211,San Jose Del Guaviare,2.5729,-72.6459,71.01,95,100,1.3,CO,Mon Oct 30 02:59:46 2023
212,Peachtree City,33.3968,-84.5958,64.02,91,0,0.0,US,Mon Oct 30 02:59:46 2023
213,Kujang-Up,39.8672,126.0303,65.14,56,74,3.76,KP,Mon Oct 30 02:59:47 2023
214,Kingston,17.997,-76.7936,81.55,89,20,4.61,JM,Mon Oct 30 02:57:09 2023
215,Sabang,5.8933,95.3214,81.57,76,70,7.11,ID,Mon Oct 30 02:59:47 2023
216,Lhokseumawe,5.1801,97.1507,84.29,72,39,6.55,ID,Mon Oct 30 02:59:47 2023
217,Santiago,-33.4569,-70.6483,53.85,79,100,2.3,CL,Mon Oct 30 02:58:07 2023
218,Machico,32.7,-16.7667,70.43,78,20,9.22,PT,Mon Oct 30 02:59:47 2023
219,Nova Sintra,14.8667,-24.7167,74.08,64,100,5.44,CV,Mon Oct 30 02:59:47 2023
220,East London,-33.0153,27.9116,59.09,58,100,10.38,ZA,Mon Oct 30 02:59:47 2023
221,Angaur State,6.906,134.13,83.53,74,15,10.09,PW,Mon Oct 30 02:59:48 2023
222,Port Saint John'S,-31.6229,29.5448,61.66,53,68,2.86,ZA,Mon Oct 30 02:59:48 2023
223,Westport,41.1415,-73.3579,55.44,88,100,4.0,US,Mon Oct 30 02:59:48 2023
224,Nahiyat Al Fuhud,30.9697,46.7228,85.48,27,30,7.54,IQ,Mon Oct 30 02:59:48 2023
225,Flying Fish Cove,-10.4217,105.6791,82.08,78,75,11.5,CX,Mon Oct 30 02:59:48 2023
226,Myeik,12.4333,98.6,85.05,71,100,2.75,MM,Mon Oct 30 02:59:48 2023
227,Dixon,38.4455,-121.8233,57.29,56,0,0.0,US,Mon Oct 30 02:56:02 2023
228,Zhicheng,30.2956,111.5047,82.49,37,0,4.56,CN,Mon Oct 30 02:59:49 2023
229,Prince Albert,53.2001,-105.7677,26.55,68,75,12.66,CA,Mon Oct 30 02:59:49 2023
230,Hithadhoo,-0.6,73.0833,81.12,78,32,13.78,MV,Mon Oct 30 02:59:49 2023
231,Puerto Ayacucho,5.6639,-67.6236,74.35,94,100,2.08,VE,Mon Oct 30 02:59:49 2023
232,Puerto Armuelles,8.2833,-82.8667,81.09,75,100,10.0,PA,Mon Oct 30 02:59:49 2023
233,Payyannur,12.1,75.2,85.33,70,83,5.37,IN,Mon Oct 30 02:59:49 2023
234,Jabor,5.921,169.6434,84.02,74,100,10.36,MH,Mon Oct 30 02:59:49 2023
235,Okhotsk,59.3833,143.3,25.03,75,23,2.48,RU,Mon Oct 30 02:59:49 2023
236,Salalah,17.0151,54.0924,82.15,59,11,4.79,OM,Mon Oct 30 02:59:50 2023
237,Berdyaush,55.1619,59.1464,28.24,98,100,4.74,RU,Mon Oct 30 02:59:50 2023
238,Puerto Deseado,-47.7503,-65.8938,43.02,67,100,15.73,AR,Mon Oct 30 02:59:50 2023
239,Mendarda,21.3167,70.4333,93.6,20,5,9.57,IN,Mon Oct 30 02:59:50 2023
240,Lamu,-2.2717,40.902,82.62,72,98,9.24,KE,Mon Oct 30 02:59:50 2023
241,Jatai,-17.8814,-51.7144,72.09,82,42,2.57,BR,Mon Oct 30 02:59:50 2023
242,Metlaoui,34.3208,8.4016,67.28,38,93,5.35,TN,Mon Oct 30 02:59:50 2023
243,Kudahuvadhoo,2.6708,72.8944,82.62,69,99,12.17,MV,Mon Oct 30 02:59:50 2023
244,Mata-Utu,-13.2816,-176.1745,83.66,71,0,4.76,WF,Mon Oct 30 02:59:51 2023
245,Klaksvik,62.2266,-6.589,40.12,70,100,20.22,FO,Mon Oct 30 02:59:51 2023
246,Mataram,-8.5833,116.1167,92.21,69,100,1.5,ID,Mon Oct 30 02:59:51 2023
247,Las Tablas,7.7667,-80.2833,76.55,88,100,5.23,PA,Mon Oct 30 02:59:51 2023
248,Nagato,34.3833,131.2,64.92,53,1,7.65,JP,Mon Oct 30 02:59:51 2023
249,Puerto Baquerizo Moreno,-0.9,-89.6,73.47,80,88,11.72,EC,Mon Oct 30 02:59:52 2023
250,Chibougamau,49.9168,-74.3659,28.02,93,100,3.44,CA,Mon Oct 30 02:59:52 2023
251,San Antonio De Pale,-1.4014,5.6325,79.32,86,62,13.13,GQ,Mon Oct 30 02:59:52 2023
252,Tanumah,27.1,44.1333,80.73,23,73,8.77,SA,Mon Oct 30 02:59:52 2023
253,Chonchi,-42.6128,-73.8092,40.21,97,88,3.58,CL,Mon Oct 30 02:59:52 2023
254,Cabo San Lucas,22.8909,-109.9124,77.5,76,0,3.0,MX,Mon Oct 30 02:59:52 2023
255,Federacion,-31.0062,-57.8996,69.58,91,100,6.58,AR,Mon Oct 30 02:59:52 2023
256,Itaueira,-7.6033,-43.0256,75.04,42,77,5.57,BR,Mon Oct 30 02:59:52 2023
257,North Battleford,52.7834,-108.2847,17.69,93,0,6.91,CA,Mon Oct 30 02:59:53 2023
258,Tepalcatepec,19.1833,-102.85,72.99,91,30,1.72,MX,Mon Oct 30 02:59:53 2023
259,Vadso,70.0744,29.7487,19.56,93,20,12.66,NO,Mon Oct 30 02:59:53 2023
260,Banca,46.3,27.8,61.23,51,95,10.42,RO,Mon Oct 30 02:59:53 2023
261,Philipsburg,18.026,-63.0458,82.35,89,75,11.5,SX,Mon Oct 30 02:59:53 2023
262,Bowen,-20.0167,148.2333,76.21,54,13,16.87,AU,Mon Oct 30 02:59:53 2023
263,Karratha,-20.7377,116.8463,90.9,39,36,12.3,AU,Mon Oct 30 02:59:53 2023
264,Codrington,-38.2667,141.9667,57.94,52,8,23.33,AU,Mon Oct 30 02:59:53 2023
265,Togur,58.3631,82.8265,20.14,71,31,5.99,RU,Mon Oct 30 02:59:54 2023
266,Christchurch,-43.5333,172.6333,57.9,79,75,18.41,NZ,Mon Oct 30 02:59:27 2023
267,Keflavik,64.0049,-22.5624,39.63,75,0,8.05,IS,Mon Oct 30 02:59:54 2023
268,Kegen,43.0197,79.2203,55.6,45,100,2.08,KZ,Mon Oct 30 02:59:54 2023
269,Dwarka,22.2394,68.9678,88.27,39,5,10.51,IN,Mon Oct 30 02:59:54 2023
270,Yibin,28.7667,104.6238,76.37,53,30,4.45,CN,Mon Oct 30 02:59:54 2023
271,Quzhou,28.9594,118.8686,76.75,54,0,4.45,CN,Mon Oct 30 02:57:38 2023
272,Sadovoye,47.7764,44.5089,51.35,64,0,12.21,RU,Mon Oct 30 02:59:54 2023
273,Arkhangel'Sk,64.5401,40.5433,24.13,81,17,5.61,RU,Mon Oct 30 02:59:55 2023
274,Nuku'Alofa,-21.1333,-175.2,75.54,88,20,13.8,TO,Mon Oct 30 02:59:55 2023
275,Guiren,33.6697,118.1889,80.92,28,4,8.14,CN,Mon Oct 30 02:59:55 2023
276,Bikenibeu Village,1.3673,173.1241,85.96,74,40,4.61,KI,Mon Oct 30 02:59:55 2023
277,Pishin,30.5803,66.9961,73.6,23,0,5.21,PK,Mon Oct 30 02:59:55 2023
278,Udachny,66.4167,112.4,-1.55,70,100,8.7,RU,Mon Oct 30 02:59:55 2023
279,Rongelap,11.1635,166.8941,83.59,80,100,20.07,MH,Mon Oct 30 02:59:56 2023
280,Al Fulah,11.7329,28.3579,84.97,47,97,4.07,SD,Mon Oct 30 02:59:56 2023
281,Gotha,50.9482,10.7019,54.14,87,0,12.66,DE,Mon Oct 30 02:59:57 2023
282,Tommot,58.9564,126.2925,18.77,87,100,4.72,RU,Mon Oct 30 02:59:57 2023
283,Vila Do Maio,15.1333,-23.2167,74.19,70,100,6.46,CV,Mon Oct 30 02:59:57 2023
284,Belle Fourche,44.6714,-103.8522,27.34,54,0,11.61,US,Mon Oct 30 02:59:57 2023
285,Polyarnyy,69.1989,33.4478,21.33,90,100,10.54,RU,Mon Oct 30 02:59:57 2023
286,Katoro,-3.0203,31.8958,79.68,48,18,5.1,TZ,Mon Oct 30 02:59:58 2023
287,Xining,36.6167,101.7667,57.56,29,14,3.89,CN,Mon Oct 30 02:59:58 2023
288,Espita,21.0167,-88.3167,68.95,97,0,3.0,MX,Mon Oct 30 02:59:59 2023
289,Sandnessjoen,66.0217,12.6316,30.42,80,20,8.05,NO,Mon Oct 30 02:59:59 2023
290,Sihanoukville,10.6093,103.5296,89.55,70,40,9.22,KH,Mon Oct 30 02:59:59 2023
291,Tataouine,32.9297,10.4518,77.63,20,60,11.77,TN,Mon Oct 30 02:59:59 2023
292,Conduaga,8.862,117.4893,85.41,70,98,2.21,PH,Mon Oct 30 02:59:59 2023
293,Kargasok,59.0556,80.8572,17.96,81,7,7.0,RU,Mon Oct 30 02:59:59 2023
294,Zhuanghe,39.7008,122.9911,66.38,72,100,6.87,CN,Mon Oct 30 02:59:59 2023
295,Labrador City,52.9463,-66.9114,22.91,86,75,4.61,CA,Mon Oct 30 02:58:02 2023
296,La Isla,18.6,-96.15,72.27,94,0,4.41,MX,Mon Oct 30 03:00:00 2023
297,Walvis Bay,-22.9575,14.5053,62.85,72,5,4.9,NA,Mon Oct 30 03:00:00 2023
298,Ar Ruways,24.1103,52.7306,87.75,52,93,10.71,AE,Mon Oct 30 03:00:00 2023
299,Sivas,39.7916,37.0019,59.86,54,100,3.36,TR,Mon Oct 30 03:00:01 2023
300,Mezhdurechenskiy,59.6,65.9333,23.27,70,90,11.59,RU,Mon Oct 30 03:00:01 2023
301,Santo Antonio,-6.3106,-35.4789,70.16,86,14,7.2,BR,Mon Oct 30 03:00:02 2023
302,Novoishimskiy,53.1981,66.7694,40.15,97,100,13.02,KZ,Mon Oct 30 03:00:11 2023
303,Bardai,11.65,7.2333,76.78,26,68,8.75,NG,Mon Oct 30 03:00:15 2023
304,Whitehorse,60.7161,-135.0538,31.01,86,100,10.36,CA,Mon Oct 30 03:00:17 2023
305,Owase,34.0667,136.2,65.44,65,2,3.96,JP,Mon Oct 30 03:00:18 2023
306,Mizdah,31.4451,12.9801,68.34,45,5,7.02,LY,Mon Oct 30 03:00:18 2023
307,Touros,-5.1989,-35.4608,78.87,73,11,23.49,BR,Mon Oct 30 03:00:19 2023
308,Manokwari,-0.8667,134.0833,82.54,73,49,3.4,ID,Mon Oct 30 03:00:19 2023
309,Hamilton,39.1834,-84.5333,50.63,96,100,3.0,US,Mon Oct 30 02:59:10 2023
310,Zhosaly,45.4878,64.0781,63.57,46,100,9.19,KZ,Mon Oct 30 03:00:20 2023
311,Vilyuysk,63.7553,121.6247,17.01,86,94,5.99,RU,Mon Oct 30 03:00:21 2023
312,Newman,37.3138,-121.0208,50.29,29,6,1.68,US,Mon Oct 30 02:57:04 2023
313,Labuan,5.2767,115.2417,88.16,79,20,7.0,MY,Mon Oct 30 03:00:22 2023
314,Mbuguni,-3.5667,36.95,74.82,52,63,10.31,TZ,Mon Oct 30 03:00:24 2023
315,Uturoa,-16.7333,-151.4333,79.7,78,0,16.64,PF,Mon Oct 30 03:00:24 2023
316,Haiku-Pauwela,20.9219,-156.3051,76.05,75,20,11.5,US,Mon Oct 30 03:00:24 2023
317,Qamdo,31.1667,97.2333,39.56,29,100,1.48,CN,Mon Oct 30 03:00:26 2023
318,Jackson,42.4165,-122.8345,45.0,59,0,0.0,US,Mon Oct 30 02:59:00 2023
319,College,64.8569,-147.8028,27.07,89,100,3.44,US,Mon Oct 30 03:00:26 2023
320,Arno,60.1167,18.6333,38.79,81,100,13.44,SE,Mon Oct 30 03:00:27 2023
321,Sultandagi,38.5311,31.2281,64.76,50,100,5.08,TR,Mon Oct 30 03:00:28 2023
322,Fortuna,40.5982,-124.1573,45.52,100,0,12.66,US,Mon Oct 30 03:00:28 2023
323,Altamira,-3.2033,-52.2064,73.71,91,1,4.72,BR,Mon Oct 30 02:59:54 2023
324,Badger,64.8,-147.5333,26.98,91,100,3.44,US,Mon Oct 30 03:00:29 2023
325,Kidal,18.4411,1.4078,78.82,12,2,10.78,ML,Mon Oct 30 03:00:30 2023
326,Atar,20.5169,-13.0499,77.49,16,3,4.79,MR,Mon Oct 30 03:00:30 2023
327,Bayganin,48.6947,55.8742,44.64,69,100,18.14,KZ,Mon Oct 30 03:00:30 2023
328,Camana,-16.6228,-72.7111,65.64,88,51,8.66,PE,Mon Oct 30 03:00:30 2023
329,Tura,25.5198,90.2201,82.27,58,0,2.17,IN,Mon Oct 30 03:00:31 2023
330,Cobija,-11.0267,-68.7692,75.78,80,100,3.44,BO,Mon Oct 30 03:00:31 2023
331,Rabo De Peixe,37.8,-25.5833,56.71,99,20,2.3,PT,Mon Oct 30 03:00:31 2023
332,Konarka,19.9,86.1167,88.2,50,0,8.48,IN,Mon Oct 30 03:00:32 2023
333,Santa Elena De Uairen,4.6167,-61.1333,68.85,74,6,2.91,VE,Mon Oct 30 03:00:32 2023
334,Znomenka,48.7128,32.6647,57.52,58,84,15.46,UA,Mon Oct 30 03:00:32 2023
335,Zambezi,-13.5432,23.1047,79.77,48,97,7.34,ZM,Mon Oct 30 03:00:33 2023
336,Lagos,6.5833,3.75,79.12,90,100,1.3,NG,Mon Oct 30 02:56:07 2023
337,Nadi,-17.8,177.4167,82.4,78,40,8.05,FJ,Mon Oct 30 03:00:34 2023
338,Novyy Urgal,51.0736,132.5642,35.1,97,100,7.34,RU,Mon Oct 30 03:00:36 2023
339,Tiksi,71.6872,128.8694,-1.52,99,96,7.2,RU,Mon Oct 30 03:00:38 2023
340,Zelenoborskiy,66.845,32.3622,19.65,81,99,4.88,RU,Mon Oct 30 03:00:38 2023
341,Alfaro,42.1803,-1.7502,55.85,79,100,7.65,ES,Mon Oct 30 03:00:39 2023
342,Belogorsk,50.9158,128.4611,36.75,41,6,13.38,RU,Mon Oct 30 03:00:40 2023
343,Probolinggo,-7.7543,113.2159,93.81,42,22,9.17,ID,Mon Oct 30 03:00:41 2023
344,Kuching,1.55,110.3333,88.02,66,40,5.75,MY,Mon Oct 30 02:56:01 2023
345,Anadyr,64.75,177.4833,28.9,92,100,24.61,RU,Mon Oct 30 03:00:43 2023
346,Sao Joao Da Barra,-21.6403,-41.0511,72.72,96,100,2.15,BR,Mon Oct 30 03:00:43 2023
347,Kavaratti,10.5669,72.642,82.74,69,100,4.74,IN,Mon Oct 30 03:00:43 2023
348,Tabou,4.423,-7.3528,78.98,82,4,4.12,CI,Mon Oct 30 03:00:44 2023
349,Ouadda,8.0777,22.4007,78.42,69,96,5.84,CF,Mon Oct 30 03:00:44 2023
350,Biloxi,30.396,-88.8853,75.24,87,40,4.61,US,Mon Oct 30 02:59:36 2023
351,Adler,43.43,39.92,64.56,67,0,4.47,RU,Mon Oct 30 02:55:46 2023
352,Flin Flon,54.7682,-101.865,23.45,90,100,9.33,CA,Mon Oct 30 03:00:45 2023
353,Watsa,3.0372,29.5355,75.83,69,66,3.67,CD,Mon Oct 30 03:00:45 2023
354,Long,18.0761,99.8326,89.92,68,71,4.5,TH,Mon Oct 30 03:00:46 2023
355,Kuanda,56.3161,116.0806,21.07,38,7,1.03,RU,Mon Oct 30 03:00:46 2023
356,Carolina Beach,34.0352,-77.8936,68.07,96,0,8.55,US,Mon Oct 30 02:57:06 2023
357,Les Avirons,-21.2418,55.3394,82.49,62,0,17.27,RE,Mon Oct 30 03:00:46 2023
358,Naha,26.2125,127.6811,81.28,51,40,13.8,JP,Mon Oct 30 03:00:47 2023
359,Barra De Santo Antonio,-9.4047,-35.5072,70.88,81,37,4.47,BR,Mon Oct 30 03:00:47 2023
360,Jalai Nur,49.45,117.7,33.22,23,100,5.91,CN,Mon Oct 30 03:00:47 2023
361,Port Hedland,-20.3167,118.5667,86.05,74,100,19.57,AU,Mon Oct 30 03:00:47 2023
362,Jutai,-5.1833,-68.9,72.59,99,100,3.0,BR,Mon Oct 30 03:00:48 2023
363,Raja,8.4596,25.678,83.97,55,77,4.68,SS,Mon Oct 30 03:00:48 2023
364,Kushima,31.4583,131.2333,66.76,63,38,3.58,JP,Mon Oct 30 03:00:48 2023
365,Neumarkt-Sankt Veit,48.3667,12.5,52.34,97,68,5.17,DE,Mon Oct 30 03:00:48 2023
366,Praia Da Vitoria,38.7333,-27.0667,55.76,94,40,5.14,PT,Mon Oct 30 03:00:48 2023
367,San Felipe Orizatlan,21.1833,-98.6167,71.06,95,17,1.43,MX,Mon Oct 30 03:00:49 2023
368,Bilokurakyne,49.5341,38.7307,50.54,72,52,10.13,UA,Mon Oct 30 03:00:49 2023
369,Kapuskasing,49.4169,-82.4331,28.4,86,100,2.3,CA,Mon Oct 30 03:00:49 2023
370,Happy Valley-Goose Bay,53.3168,-60.3315,26.91,50,0,21.85,CA,Mon Oct 30 03:00:18 2023
371,Mogocha,53.7333,119.7667,24.46,27,6,6.73,RU,Mon Oct 30 03:00:50 2023
372,Prince Rupert,54.3161,-130.3201,42.49,86,0,10.36,CA,Mon Oct 30 03:00:29 2023
373,Tenenkou,14.4572,-4.9169,83.61,30,100,6.49,ML,Mon Oct 30 03:00:50 2023
374,Muroto-Misakicho,33.2833,134.15,65.7,51,0,4.5,JP,Mon Oct 30 03:00:50 2023
375,Dzuunmod,48.2199,97.3744,37.45,55,100,16.75,MN,Mon Oct 30 03:00:51 2023
376,Asbe Teferi,9.0833,40.8667,68.0,71,74,0.87,ET,Mon Oct 30 03:00:51 2023
377,Rudnichnyy,59.617,52.4703,27.23,86,100,2.19,RU,Mon Oct 30 03:00:51 2023
378,Fortaleza,-3.7227,-38.5247,84.07,74,20,17.27,BR,Mon Oct 30 03:00:00 2023
379,Ash Shajarah,32.6446,35.941,78.31,34,100,16.02,JO,Mon Oct 30 03:00:51 2023
380,Awjilah,29.1081,21.2869,73.17,44,11,3.96,LY,Mon Oct 30 03:00:52 2023
381,Alofi,-19.0595,-169.9187,76.89,78,5,10.36,NU,Mon Oct 30 03:00:52 2023
382,Basco,20.4487,121.9702,80.29,75,10,18.66,PH,Mon Oct 30 03:00:52 2023
383,Salekhard,66.53,66.6019,9.84,95,89,2.24,RU,Mon Oct 30 03:00:52 2023
384,Quellon,-43.1167,-73.6167,39.88,89,100,7.85,CL,Mon Oct 30 03:00:52 2023
385,Sarangani,5.4033,125.4636,84.56,67,80,7.07,PH,Mon Oct 30 03:00:53 2023
386,Vila Velha,-20.3297,-40.2925,76.95,73,20,5.75,BR,Mon Oct 30 03:00:53 2023
387,Souillac,-20.5167,57.5167,82.78,65,40,11.5,MU,Mon Oct 30 03:00:53 2023
388,Umarkot,25.3616,69.7362,94.15,19,100,4.83,PK,Mon Oct 30 03:00:32 2023
389,Vilhena,-12.7406,-60.1458,75.43,66,95,2.37,BR,Mon Oct 30 03:00:53 2023
390,Northam,51.0333,-4.2167,54.66,96,98,14.5,GB,Mon Oct 30 03:00:53 2023
391,San Fernando De Apure,7.8878,-67.4724,75.61,87,96,3.13,VE,Mon Oct 30 03:00:54 2023
392,Neelankarai,12.9455,80.2575,86.05,79,75,4.61,IN,Mon Oct 30 03:00:54 2023
393,Jingling,30.65,113.1,83.7,28,0,4.63,CN,Mon Oct 30 03:00:54 2023
394,Aden,12.7794,45.0367,87.17,47,100,16.26,YE,Mon Oct 30 03:00:54 2023
395,Brokopondo,4.75,-55.1667,78.04,81,12,10.25,SR,Mon Oct 30 03:00:54 2023
396,Kikwit,-5.041,18.8162,80.91,74,75,1.7,CD,Mon Oct 30 03:00:55 2023
397,China,25.7,-99.2333,60.13,62,79,33.76,MX,Mon Oct 30 03:00:55 2023
398,Tokorozawa,35.7992,139.469,72.21,44,75,8.05,JP,Mon Oct 30 03:00:55 2023
399,Dock Junction,31.2025,-81.5168,71.6,96,100,0.0,US,Mon Oct 30 03:00:55 2023
400,Eraan,9.0629,117.7016,85.75,71,100,3.87,PH,Mon Oct 30 03:00:55 2023
401,Valparaiso,-33.0393,-71.6273,53.24,82,0,4.61,CL,Mon Oct 30 03:00:22 2023
402,Linxia Chengguanzhen,35.6003,103.2064,62.29,27,9,4.97,CN,Mon Oct 30 03:00:56 2023
403,Dazuocun,24.8862,118.9643,73.38,74,0,22.46,CN,Mon Oct 30 03:00:56 2023
404,Saddiqabad,28.3062,70.1307,95.83,17,73,6.26,PK,Mon Oct 30 03:00:57 2023
405,Quimili,-27.6333,-62.4167,71.33,88,100,13.49,AR,Mon Oct 30 03:00:58 2023
406,Kirakira,-10.4544,161.9205,80.62,85,94,9.37,SB,Mon Oct 30 03:00:58 2023
407,Tvrdosin,49.337,19.556,57.49,92,100,5.26,SK,Mon Oct 30 03:00:58 2023
408,Kenora,49.8167,-94.4337,18.57,93,75,5.75,CA,Mon Oct 30 02:58:33 2023
409,Sarikei,2.1167,111.5167,84.56,79,100,2.28,MY,Mon Oct 30 03:00:59 2023
410,Cao Bang,22.6667,106.25,82.99,51,97,4.32,VN,Mon Oct 30 03:00:59 2023
411,Shingu,33.7333,135.9833,65.64,66,0,5.55,JP,Mon Oct 30 03:00:59 2023
412,Amol,36.4696,52.3507,72.1,71,81,11.25,IR,Mon Oct 30 03:00:59 2023
413,Fisterra,42.9049,-9.2629,54.01,73,96,21.9,ES,Mon Oct 30 03:00:59 2023
414,Hailsham,50.8622,0.2578,57.49,83,100,3.0,GB,Mon Oct 30 03:01:00 2023
415,Tokar,18.4254,37.729,89.62,55,100,10.67,SD,Mon Oct 30 03:01:00 2023
416,Cidreira,-30.1811,-50.2056,67.08,92,3,4.74,BR,Mon Oct 30 03:01:00 2023
417,Kone,-21.0595,164.8658,69.46,62,5,8.05,NC,Mon Oct 30 03:01:01 2023
418,Ponta Delgada,37.7333,-25.6667,57.92,82,20,2.3,PT,Mon Oct 30 02:57:42 2023
419,Nelson Bay,-32.7167,152.15,89.65,53,10,13.0,AU,Mon Oct 30 03:01:01 2023
420,Usinsk,65.9939,57.5281,16.39,79,100,6.93,RU,Mon Oct 30 03:01:01 2023
421,Faya-Largeau,17.9257,19.1043,81.43,17,10,24.38,TD,Mon Oct 30 03:01:02 2023
422,Kunigal,13.0222,77.0267,80.96,61,100,9.26,IN,Mon Oct 30 03:01:02 2023
423,Novaya Igirma,57.1334,103.9112,25.74,47,99,4.88,RU,Mon Oct 30 03:01:03 2023
424,Choele Choel,-39.2667,-65.6833,44.98,35,0,16.84,AR,Mon Oct 30 02:59:06 2023
425,Mesyagutovo,55.5303,58.2528,33.33,99,100,5.93,RU,Mon Oct 30 03:01:05 2023
426,Bac Lieu,9.285,105.7244,85.46,75,100,14.54,VN,Mon Oct 30 03:01:05 2023
427,Sisimiut,66.9395,-53.6735,29.46,71,99,10.87,GL,Mon Oct 30 03:01:06 2023
428,Egilsstadir,65.2653,-14.3948,28.31,93,20,4.61,IS,Mon Oct 30 03:01:06 2023
429,Bonny,4.4522,7.1681,79.0,85,100,11.63,NG,Mon Oct 30 03:01:07 2023
430,Cockburn Town,21.4612,-71.1419,83.05,78,37,9.13,TC,Mon Oct 30 03:01:08 2023
431,Saint-Joseph,-21.3667,55.6167,84.58,77,28,9.42,RE,Mon Oct 30 03:01:08 2023
432,Huron,41.1501,-82.5499,49.68,95,100,11.54,US,Mon Oct 30 03:01:08 2023
433,Selfoss,63.9331,-20.9971,33.04,74,60,7.38,IS,Mon Oct 30 03:01:09 2023
434,Cabimas,10.3883,-71.4399,79.18,84,26,6.17,VE,Mon Oct 30 02:57:45 2023
435,Gagarin,55.5529,34.9954,33.57,97,100,15.97,RU,Mon Oct 30 03:01:09 2023
436,Alice Springs,-23.7,133.8833,101.75,4,54,5.75,AU,Mon Oct 30 03:01:09 2023
437,Santa Marta,11.2408,-74.199,79.9,75,65,4.0,CO,Mon Oct 30 03:01:10 2023
438,Vernon,50.2581,-119.2691,32.29,67,8,5.75,CA,Mon Oct 30 03:00:33 2023
439,Pagar Alam,-4.0167,103.2667,90.23,26,16,6.51,ID,Mon Oct 30 03:01:14 2023
440,Faro,37.0194,-7.9322,60.58,88,20,5.75,PT,Mon Oct 30 03:01:15 2023
441,Arkansas City,37.062,-97.0384,32.49,51,8,13.31,US,Mon Oct 30 03:01:16 2023
442,Enriquillo,17.9,-71.2333,79.29,86,98,1.92,DO,Mon Oct 30 03:01:16 2023
443,Tadine,-21.55,167.8833,68.72,64,5,11.25,NC,Mon Oct 30 03:01:16 2023
444,Pudozh,61.8099,36.5345,19.94,98,70,3.0,RU,Mon Oct 30 03:01:20 2023
445,Caxito,-8.5785,13.6643,81.68,72,91,3.36,AO,Mon Oct 30 03:01:21 2023
446,Kuraymah,18.55,31.85,93.07,29,0,19.84,SD,Mon Oct 30 03:01:23 2023
447,As Sulayyil,20.4607,45.5779,77.25,25,72,12.33,SA,Mon Oct 30 03:01:23 2023
448,Buala,-8.145,159.5921,82.09,80,100,3.49,SB,Mon Oct 30 03:01:24 2023
449,Loei,17.4167,101.5,76.37,89,99,4.16,TH,Mon Oct 30 03:01:24 2023
450,Aleksandrovsk-Sakhalinskiy,50.8975,142.1561,36.57,84,67,9.48,RU,Mon Oct 30 03:01:24 2023
451,Pacific Grove,36.6177,-121.9166,59.18,49,87,8.5,US,Mon Oct 30 03:01:25 2023
452,Garissa,-0.4536,39.6401,87.01,54,96,9.37,KE,Mon Oct 30 03:01:25 2023
453,Buchanan,5.8808,-10.0467,77.23,86,10,1.21,LR,Mon Oct 30 03:01:25 2023
454,Portland,45.5234,-122.6762,48.09,55,0,15.01,US,Mon Oct 30 03:00:55 2023
455,Horta,38.5333,-28.6333,62.2,66,100,0.63,PT,Mon Oct 30 03:01:25 2023
456,Palmer,42.1584,-72.3287,47.86,83,100,4.61,US,Mon Oct 30 03:01:26 2023
457,Rizokarpaso,35.6,34.375,75.76,67,79,5.79,CY,Mon Oct 30 03:01:26 2023
458,Quang Ngai,15.1167,108.8,75.61,96,100,6.85,VN,Mon Oct 30 03:01:26 2023
459,Maceio,-9.6658,-35.7353,71.04,100,40,2.3,BR,Mon Oct 30 03:00:09 2023
460,Yokadouma,3.5167,15.05,75.7,88,99,2.35,CM,Mon Oct 30 03:01:27 2023
461,Aykhal,66.0,111.5,-2.22,93,100,6.04,RU,Mon Oct 30 03:01:27 2023
462,Praya,14.9215,-23.5087,73.94,83,20,6.91,CV,Mon Oct 30 03:01:27 2023
463,Playas,-2.6333,-80.3833,73.69,84,100,8.63,EC,Mon Oct 30 03:00:08 2023
464,Kyaikto,17.3,97.0167,87.91,66,100,5.37,MM,Mon Oct 30 03:01:28 2023
465,Afaahiti,-17.75,-149.2833,76.87,83,50,19.39,PF,Mon Oct 30 03:01:28 2023
466,Tucuma,-0.1833,-50.05,78.12,83,16,6.2,BR,Mon Oct 30 03:01:24 2023
467,Belmonte,-15.8631,-38.8828,73.22,79,100,7.02,BR,Mon Oct 30 03:01:28 2023
468,Khvoynaya,58.9,34.5333,28.56,90,100,8.79,RU,Mon Oct 30 03:01:29 2023
469,Lubango,-14.9172,13.4925,69.66,56,4,2.3,AO,Mon Oct 30 03:01:29 2023
470,Sur,22.5667,59.5289,85.42,53,5,8.97,OM,Mon Oct 30 03:01:29 2023
471,Farah,32.5,62.5,79.59,17,0,4.99,AF,Mon Oct 30 03:01:29 2023
472,Kari,11.2471,10.561,82.81,20,91,9.48,NG,Mon Oct 30 03:01:30 2023
473,Mahebourg,-20.4081,57.7,83.25,65,40,11.5,MU,Mon Oct 30 03:01:30 2023
474,Egersund,58.4513,5.9997,42.08,67,100,19.48,NO,Mon Oct 30 03:01:30 2023
475,Crane,31.3974,-102.3501,37.67,65,100,18.39,US,Mon Oct 30 03:01:31 2023
476,Manado,1.487,124.8455,88.57,58,40,5.75,ID,Mon Oct 30 03:01:31 2023
477,Samfya,-11.3649,29.5565,82.76,38,100,5.99,ZM,Mon Oct 30 03:01:31 2023
478,Ca Mau,9.1769,105.15,84.58,78,100,9.04,VN,Mon Oct 30 03:01:31 2023
479,Mekhe,15.1097,-16.6218,77.14,81,18,6.15,SN,Mon Oct 30 03:01:32 2023
480,Geraldton,-28.7667,114.6,73.81,56,0,24.16,AU,Mon Oct 30 03:01:32 2023
481,Port Moresby,-9.4431,147.1797,78.22,83,75,17.27,PG,Mon Oct 30 02:59:27 2023
482,Shiqian,27.5225,108.2281,76.78,49,66,3.04,CN,Mon Oct 30 03:01:33 2023
483,Vilyuchinsk,52.9306,158.4028,38.93,71,31,6.82,RU,Mon Oct 30 03:01:33 2023
484,Kuta,-8.7233,115.1723,89.55,66,20,11.5,ID,Mon Oct 30 03:01:33 2023
485,Yamba,-5.9,22.3,84.24,63,56,2.04,CD,Mon Oct 30 03:01:33 2023
486,Tual,-5.6667,132.75,82.22,77,33,11.65,ID,Mon Oct 30 02:58:03 2023
487,Warrnambool,-38.3833,142.4833,56.66,59,66,26.04,AU,Mon Oct 30 03:01:34 2023
488,Bechar,31.6167,-2.2167,66.52,19,0,6.91,DZ,Mon Oct 30 03:01:34 2023
489,Bol,13.4586,14.7147,83.93,36,15,16.11,TD,Mon Oct 30 03:01:34 2023
490,Enfield Town,51.6515,-0.085,51.66,95,25,3.44,GB,Mon Oct 30 03:01:35 2023
491,Winnemucca,40.973,-117.7357,19.45,53,0,4.61,US,Mon Oct 30 02:57:57 2023
492,Goondiwindi,-28.55,150.3167,89.06,15,0,4.52,AU,Mon Oct 30 03:01:35 2023
493,Laminusa,5.5549,120.9136,83.73,68,41,1.81,PH,Mon Oct 30 03:01:35 2023
494,Zaragoza,41.6561,-0.8773,57.65,82,75,9.22,ES,Mon Oct 30 02:58:15 2023
495,Ulladulla,-35.35,150.4667,78.76,31,100,10.74,AU,Mon Oct 30 03:01:36 2023
496,Alcala Del Valle,36.9045,-5.1724,54.57,93,99,6.29,ES,Mon Oct 30 03:01:36 2023
497,Leh,34.1667,77.5833,43.36,22,4,0.83,IN,Mon Oct 30 03:01:37 2023
498,Ulsteinvik,62.3432,5.8487,37.76,56,1,8.99,NO,Mon Oct 30 03:01:37 2023
499,Lakeland,28.0395,-81.9498,69.85,93,0,4.61,US,Mon Oct 30 03:01:37 2023
500,Coahuayana De Hidalgo,18.7,-103.6583,78.69,93,60,2.75,MX,Mon Oct 30 03:01:37 2023
501,Ceuta,35.8903,-5.3075,68.02,80,73,14.07,ES,Mon Oct 30 03:01:37 2023
502,Gebeit,21.0667,36.3167,80.51,55,0,9.57,SD,Mon Oct 30 03:01:38 2023
503,Fiambala,-27.6871,-67.6149,62.38,16,0,4.03,AR,Mon Oct 30 03:01:38 2023
504,Nueva Gerona,21.8833,-82.8,78.17,81,6,11.39,CU,Mon Oct 30 03:01:38 2023
505,Bondo,3.8146,23.6866,75.0,87,100,2.77,CD,Mon Oct 30 03:01:39 2023
506,Pionerskiy,54.9508,20.2275,51.75,85,100,22.79,RU,Mon Oct 30 03:01:39 2023
507,Porto Novo,6.4965,2.6036,82.22,84,66,1.21,BJ,Mon Oct 30 03:01:39 2023
508,Wenatchee,47.4235,-120.3103,33.39,79,0,0.0,US,Mon Oct 30 03:01:01 2023
509,Socorro,31.6546,-106.3033,42.66,58,20,19.57,US,Mon Oct 30 03:01:40 2023
510,Bandar-E Lengeh,26.5579,54.8807,86.11,62,93,9.22,IR,Mon Oct 30 03:01:40 2023
511,Huarmey,-10.0681,-78.1522,66.4,90,97,9.84,PE,Mon Oct 30 03:01:40 2023
512,Bubaque,11.2833,-15.8333,81.21,75,46,3.89,GW,Mon Oct 30 03:01:41 2023
513,Okoneshnikovo,54.8377,75.0834,29.1,93,100,15.41,RU,Mon Oct 30 03:01:41 2023
514,Mar Del Plata,-38.0023,-57.5575,54.09,69,97,11.99,AR,Mon Oct 30 03:00:30 2023
515,Mel'Nikovo,56.5558,84.085,21.25,64,98,7.76,RU,Mon Oct 30 03:01:41 2023
516,Moyynkum,44.2914,72.9469,72.36,33,100,10.0,KZ,Mon Oct 30 03:01:42 2023
517,El Granada,37.5027,-122.4694,62.35,38,20,4.61,US,Mon Oct 30 03:01:42 2023
518,Zhanaozen,43.3,52.8,54.54,72,100,12.82,KZ,Mon Oct 30 03:01:42 2023
519,La Punta,-33.1837,-66.3127,50.05,74,65,27.96,AR,Mon Oct 30 03:01:42 2023
520,Zeya,53.75,127.2667,28.49,53,100,11.74,RU,Mon Oct 30 03:01:43 2023
521,Suntar,62.1444,117.6319,21.16,84,100,4.12,RU,Mon Oct 30 03:01:43 2023
522,Tyuratam,45.6507,63.3156,61.47,49,100,12.66,KZ,Mon Oct 30 03:01:43 2023
523,Mitu,1.1983,-70.1733,70.83,99,98,2.89,CO,Mon Oct 30 03:01:43 2023
524,Olovyannaya,50.95,115.5667,29.71,25,100,6.08,RU,Mon Oct 30 03:01:44 2023
525,Pandan,14.0453,124.1694,82.65,80,96,12.39,PH,Mon Oct 30 03:01:44 2023
526,Broken Hill,-31.95,141.4333,81.25,20,58,22.3,AU,Mon Oct 30 03:01:44 2023
527,Necocli,8.4234,-76.786,76.32,90,58,8.08,CO,Mon Oct 30 03:01:44 2023
528,Kolokani,13.5728,-8.0339,77.56,60,61,3.18,ML,Mon Oct 30 03:01:45 2023
529,Altai,46.3722,96.2583,41.36,53,100,22.59,MN,Mon Oct 30 03:01:45 2023
530,Kayangel,8.0823,134.7173,84.13,72,36,8.25,PW,Mon Oct 30 03:01:45 2023
531,Paita,-5.0892,-81.1144,68.16,81,100,10.58,PE,Mon Oct 30 03:01:45 2023
532,Saskatoon,52.1168,-106.6345,12.18,92,20,8.05,CA,Mon Oct 30 02:57:39 2023
533,New Norfolk,-42.7826,147.0587,62.1,60,100,8.97,AU,Mon Oct 30 03:01:46 2023
534,Bedford,52.1346,-0.4663,50.81,93,58,9.51,GB,Mon Oct 30 03:00:27 2023
535,Callaway,30.153,-85.5699,65.91,96,0,0.0,US,Mon Oct 30 03:01:46 2023
536,Mutuali,-14.8706,37.0044,89.71,30,5,5.03,MZ,Mon Oct 30 03:01:47 2023
537,Urangan,-25.3,152.9,71.69,65,97,15.57,AU,Mon Oct 30 03:01:47 2023
538,Peno,56.9262,32.7426,31.39,95,100,9.08,RU,Mon Oct 30 03:01:47 2023
539,Winterset,41.3308,-94.0138,26.71,78,12,12.06,US,Mon Oct 30 03:00:11 2023
540,Contai,21.7786,87.7536,84.29,50,0,4.76,IN,Mon Oct 30 03:01:48 2023
541,Bijawar,24.6333,79.5,84.45,28,53,5.53,IN,Mon Oct 30 03:01:48 2023
542,Rawson,-43.3002,-65.1023,44.85,42,14,19.84,AR,Mon Oct 30 03:01:48 2023
543,Uliastay,47.7417,96.8444,40.44,57,99,5.61,MN,Mon Oct 30 03:01:48 2023
544,Vrangel',42.7297,133.0839,55.53,79,100,5.77,RU,Mon Oct 30 03:01:48 2023
545,Baranivka,50.2969,27.6622,57.63,57,100,14.27,UA,Mon Oct 30 03:01:49 2023
546,Gornozavodsk,58.3758,58.3211,26.58,75,98,10.69,RU,Mon Oct 30 02:56:51 2023
547,Kismayo,-0.3582,42.5454,84.94,65,66,9.62,SO,Mon Oct 30 03:01:49 2023
548,Atamyrat,37.8357,65.2106,84.9,18,9,3.96,TM,Mon Oct 30 03:01:49 2023
549,Pekanbaru,0.5333,101.45,86.32,74,40,0.0,ID,Mon Oct 30 03:00:18 2023
550,Olyokminsk,60.3736,120.4264,24.19,49,35,5.86,RU,Mon Oct 30 03:01:49 2023
551,Chernyshevskiy,63.0128,112.4714,13.66,89,100,5.53,RU,Mon Oct 30 03:01:50 2023
552,Luganville,-15.5333,167.1667,78.31,82,72,7.92,VU,Mon Oct 30 03:01:50 2023
553,Asuncion Nochixtlan,17.4667,-97.2333,54.7,94,44,4.34,MX,Mon Oct 30 03:01:50 2023
554,Abomsa,9.9833,39.9833,76.1,51,69,5.59,ET,Mon Oct 30 03:01:50 2023
